{"movies":[{"name":"The Karate Kid","year":1984,"restriction":"PG","hours":"2h6m","rating":"7.3/10"},{"name":"Beauty And The Beast","year":2017,"restriction":"PG","hours":"2h9m","rating":"7.1/10"},{"name":"Green Lantern","year":2011,"restriction":"PG-13","hours":"1h54m","rating":"5.5/10"},{"name":"Batman Begins","year":2005,"restriction":"PG-13","hours":"2h20m","rating":"8.2/10"}],"series":[{"name":"Suits","year":"2011-2019","restriction":"TV-14","hours":"45m","rating":"8.4/10"},{"name":"Prison Break","year":"2005-2017","restriction":"TV-14","hours":"44m","rating":"8.3/10"},{"name":"Peaky Blinders","year":"2013-2022","restriction":"TV-MA","hours":"1h","rating":"8.7/10"},{"name":"Breaking Bad","year":"2008-2013","restriction":"TV-MA","hours":"45m","rating":"9.5/10"}],"songs":[{"name":"Headlines","year":"2015","artist":"Drake","genre":"R&B/Soul, Hip-Hop/Rap"},{"name":"Loyal","year":"2013","artist":"Chris Brown, Lil Wayne, Tyga","genre":"Dance pop"},{"name":"Adorn","year":"2012","artist":"Miguel","genre":"Classic soul"},{"name":"Empire State Of Mind","year":"2009","artist":"Jay-z, Alicia Keys","genre":"Hip-Hop/Rap"}]}